index,City,Latitude,Longitude,Temperature
0,Abidjan,5.3599517,-4.0082563,9.360426126027397
1,Abilene,32.4487364,-99.73314390000002,17.51278537260274
2,Abu Dhabi,24.453884,54.3773438,28.52359206849315
4,Akron Canton,40.9153779,-81.4418833,9.114459684931505
5,Albany,42.6525793,-73.7562317,8.497108054794522
6,Albuquerque,35.0843859,-106.650422,14.661948238356164
7,Algiers,36.753768,3.0587561,18.357077605479454
8,Allentown,40.6022939,-75.4714098,10.452968038356165
9,Almaty,43.2220146,76.8512485,8.925266361643837
10,Amarillo,35.2219971,-101.8312969,14.088736665753423
11,Amman,31.9539494,35.910635,17.478538802739727
12,Amsterdam,52.3666969,4.8945398,10.706088273972602
13,Anchorage,61.2180556,-149.9002778,4.096042643835617
14,Ankara,39.9333635,32.8597419,10.788280071232876
15,Antananarivo,-18.8791902,47.5079055,18.561948252054794
16,Ashabad,37.9600766,58.32606289999999,16.814764065753426
17,Asheville,35.5950581,-82.5514869,12.400608800000002
18,Athens,37.9838096,23.7275388,18.288127865753424
19,Atlanta,33.7489954,-84.3879824,16.11400303561644
20,Atlantic City,39.3642834,-74.4229266,11.624048709589042
21,Auckland,-36.8484597,174.7633315,13.237899528767125
22,Austin,30.267153,-97.7430608,19.388280046575343
23,Baltimore,39.2903848,-76.6121893,11.847792989041094
24,Bangkok,13.7563309,100.5017651,29.16240487671233
25,Bangui,4.3946735,18.5581899,22.206544923287673
27,Barcelona,41.3850639,2.1734035,17.299695580821922
28,Baton Rouge,30.4514677,-91.18714659999999,19.318721460273974
29,Beijing,39.90419989999999,116.4073963,12.72572297260274
30,Beirut,33.8937913,35.5017767,21.177625602739727
31,Belfast,54.59728500000001,-5.93012,9.606088268493151
32,Belgrade,44.786568,20.4489216,12.006088232876712
33,Belize City,17.5045661,-88.1962133,26.372602736986302
34,Bern,46.9479739,7.4474468,10.32252664931507
35,Bilbao,43.2630126,-2.9349852,16.656316589041097
36,Billings,45.7832856,-108.5006904,9.492389621917809
37,Birmingham,33.5185892,-86.8103567,16.73744292054794
38,Bishkek,42.8746212,74.5697617,11.5789954
39,Bismarck,46.8083268,-100.7837392,6.248401827397261
41,Bogota,4.710988599999999,-74.072092,12.763013715068494
42,Boise,43.6150186,-116.2023137,12.34429222739726
43,Bombay (Mumbai),19.0759837,72.8776559,27.464992383561643
45,Bordeaux,44.837789,-0.57918,14.566362249315068
46,Boston,42.3600825,-71.0588801,9.850076112328766
47,Brasilia,-15.826691,-47.92182039999999,20.694824953424657
48,Bratislava,48.1485965,17.1077478,10.798021306849314
49,Brazzaville,-4.2633597,15.2428853,25.774885857534247
50,Bridgeport,41.1792258,-73.1894384,10.42420091780822
51,Bridgetown,45.5051064,-122.6750261,21.351902572602743
52,Brisbane,-27.4697707,153.0251235,19.205631654794523
53,Brownsville,25.9017472,-97.4974838,22.738964978082187
54,Brussels,50.8503396,4.3517103,11.291019758904111
55,Bucharest,44.4267674,26.1025384,10.847945216438356
56,Budapest,47.497912,19.040235,10.735159805479451
57,Buenos Aires,-34.6036844,-58.3815591,16.134703180821916
58,Buffalo,42.88644679999999,-78.8783689,8.238660569863013
60,Burlington,36.0624198,-95.88890219999999,7.112785389041096
61,Cairo,30.0444196,31.2357116,22.15555556438356
62,Calcutta,22.572646,88.36389500000001,26.570319616438354
63,Calgary,51.04473309999999,-114.0718831,4.424809747945206
64,Canberra,-35.2809368,149.1300092,13.283257205479453
65,Capetown,-33.9248685,18.4240553,16.50958904109589
66,Caracas,10.4805937,-66.90360629999999,27.292694038356164
67,Caribou,36.1910923,-95.88973539999999,3.8681887506849315
68,Casper,39.04117859999999,-94.5911521,8.093455087671233
69,Charleston,32.7764749,-79.93105120000001,15.865574861269204
70,Charlotte,35.2270869,-80.8431267,15.02070014520548
71,Chattanooga,35.0456297,-85.3096801,15.16392694520548
72,Chengdu,30.572815,104.066801,17.217351591780822
73,Chennai (Madras),13.0826802,80.2707184,28.30532725753425
74,Cheyenne,41.1399814,-104.8202462,8.684322693150685
75,Chicago,41.8781136,-87.6297982,9.42724504109589
76,Cincinnati,39.1031182,-84.5120196,11.598630139726028
77,Cleveland,41.49932,-81.6943605,10.034094375342466
78,Colombo,6.9270786,79.861243,27.436377479452055
79,Colorado Springs,38.8338816,-104.8213634,9.989041120547945
80,Columbia,34.0007104,-81.0348144,16.85783866849315
81,Columbus,39.9611755,-82.99879419999999,11.996601800329238
82,Conakry,9.641185499999999,-13.5784012,23.10700151780822
83,Concord,37.9779776,-122.0310733,7.486910224657534
84,Copenhagen,55.6760968,12.5683372,8.395281589041097
85,Corpus Christi,27.8005828,-97.39638099999999,21.48371383561644
86,Cotonou,6.3702928,2.3912362,23.837899539726028
87,Dakar,14.716677,-17.4676861,24.413242021917803
88,Dallas Ft Worth,32.7766642,-96.79698789999999,18.425722942465754
89,Damascus,33.5138073,36.2765279,17.461187194520548
90,Dar Es Salaam,-6.792354,39.2083284,18.182952827397262
91,Dayton,39.7589478,-84.1916069,10.306849304109589
92,Daytona Beach,29.2108147,-81.0228331,21.386301361643834
93,Delhi,28.7040592,77.10249019999999,24.37016746027397
94,Denver,39.7392358,-104.990251,9.97595129041096
95,Des Moines,41.5868353,-93.6249593,10.013089805479453
96,Detroit,42.331427,-83.0457538,9.363470350684931
97,Dhahran,26.2361248,50.0393017,26.830745821917805
99,Doha,25.2854473,51.53103979999999,28.20532724109589
100,Dubai,25.2048493,55.2707828,28.581278512328765
101,Dublin,53.3498053,-6.2603097,9.983713835616438
102,Duluth,46.78667189999999,-92.1004852,4.112176539726027
103,Dusanbe,38.5597722,68.7870384,15.167123309589039
104,Edmonton,53.5461245,-113.4938229,3.3340943616438357
105,El Paso,31.7618778,-106.4850217,18.939878227397262
106,Elkins,36.0014682,-94.0082547,9.37960425479452
107,Erie,42.12922409999999,-80.085059,8.794824964383562
108,Eugene,44.0520691,-123.0867536,11.65357683561644
109,Evansville,37.9715592,-87.5710898,13.076712347945204
111,Fargo,46.8771863,-96.7898034,5.523592090410959
112,Flagstaff,35.1982836,-111.651302,8.708828002739725
113,Flint,43.0125274,-83.6874562,8.502587528767124
114,Fort Smith,35.3859242,-94.39854749999999,15.840639268493149
115,Fort Wayne,41.079273,-85.1393513,9.18645358630137
117,Freetown,8.4656765,-13.2317225,19.934398717808218
118,Fresno,36.7377981,-119.7871247,18.071689493150686
119,Geneva,46.2043907,6.1431577,11.14079145479452
121,Goodland,29.673831,-95.5452176,11.095585989041096
122,Grand Junction,39.0638705,-108.5506486,12.697716887671234
123,Grand Rapids,42.9633599,-85.6680863,8.074124797260273
124,Great Falls,38.9987208,-77.2538699,7.886149134246575
125,Green Bay,44.5133188,-88.0132958,6.512328786301369
126,Greensboro,36.0726354,-79.7919754,14.294368364383562
128,Guangzhou,23.12911,113.264385,22.868493142465752
129,Guatemala City,14.6349149,-90.5068824,17.54870625479452
130,Guayaquil,-2.1894128,-79.8890662,23.02739728493151
131,Halifax,44.6475811,-63.5727683,6.910654515068492
133,Hamilton,37.9426096,-96.19513200000002,21.71765603561644
134,Hanoi,21.0277644,105.8341598,24.43302893424658
135,Harrisburg,40.2731911,-76.8867008,10.723592079452054
136,Hartford Springfield,41.9413995,-72.6996932,9.484474893150685
137,Havana,23.1135925,-82.3665956,24.06331810958904
138,Helena,46.5891452,-112.0391057,7.936834115068493
139,Helsinki,60.16985569999999,24.9383791,5.215981750684931
140,Hong Kong,22.3193039,114.1693611,24.303652986301373
141,Honolulu,21.3069444,-157.8583333,24.995281569863007
142,Houston,29.7604267,-95.3698028,20.38782343287671
143,Huntsville,34.7303688,-86.5861037,15.541552498630136
144,Indianapolis,39.768403,-86.158068,11.05646881369863
145,Islamabad,33.6844202,73.04788479999999,21.56240488493151
146,Istanbul,41.0082376,28.9783589,14.376864515068492
147,Jackson,32.2987573,-90.1848103,17.370624073972603
148,Jacksonville,30.3321838,-81.65565099999999,19.34490107123288
150,Juneau,58.3019444,-134.4197221,5.729375953424659
152,Kansas City,39.0997265,-94.5785667,12.5173516
153,Karachi,24.8607343,67.0011364,26.97382040547945
154,Katmandu,27.7172453,85.3239605,19.02161341643836
155,Kiev,50.4501,30.5234,8.368188747945206
156,Knoxville,35.9606384,-83.9207392,14.355251112328766
157,Kuala Lumpur,3.139003,101.686855,27.86286148219178
158,Kuwait,29.31166,47.481766,27.131354646575346
159,La Paz,-16.489689,-68.11929359999999,6.9802130821917805
161,Lake Charles,30.2265949,-93.2173758,19.843226767123284
162,Lansing,42.732535,-84.5555347,8.128462687671234
163,Las Vegas,36.1699412,-115.1398296,21.09147639178082
164,Lexington,38.0405837,-84.5037164,12.296803671232878
165,Libreville,0.4161976,9.4672676,24.413546443835617
167,Lima,-12.0463731,-77.042754,17.987366838356163
168,Lincoln,40.813616,-96.7025955,10.496955857534244
169,Lisbon,38.7222524,-9.1393366,17.254642326027394
170,Little Rock,34.7464809,-92.28959479999999,16.411872128767126
171,Lome,6.1256261,1.2254183,23.028310484931506
172,London,51.5073509,-0.1277583,11.973363769863013
173,Los Angeles,34.0522342,-118.2436849,16.49999998630137
174,Louisville,38.2526647,-85.7584557,13.435159786301371
175,Lubbock,33.5778631,-101.8551665,16.047336375342464
176,Lusaka,-15.3875259,28.3228165,15.279299843835615
177,Macon,32.8406946,-83.6324022,17.707914758904106
178,Madison,43.0730517,-89.4012302,7.913089819178082
179,Madrid,40.4167754,-3.7037902,14.973211553424656
180,Managua,12.1149926,-86.2361744,26.899543364383565
181,Manama,26.2235305,50.5875935,27.209132432876714
182,Manila,14.5995124,120.9842195,26.980974126027395
183,Maputo,-25.969248,32.5731746,19.22207
184,Medford,42.3265152,-122.8755949,13.216590553424657
185,Melbourne,-37.8136276,144.9630576,17.636073063013697
186,Memphis,35.1495343,-90.0489801,16.282800591780823
187,Mexico City,19.4326077,-99.133208,16.735920843835615
188,Miami Beach,25.790654,-80.1300455,24.858599668493145
189,Midland Odessa,31.9391746,-102.2522487,18.07914764109589
190,Milan,45.4642035,9.189982,13.14322679452055
191,Milwaukee,43.0389025,-87.9064736,8.244140038356164
192,Minneapolis St. Paul,44.9374831,-93.20099979999999,7.9863013671232865
193,Minsk,53.9006011,27.558972,7.002283098630138
194,Mobile,36.723521,-95.93437,19.386605789041095
195,Monterrey,25.6866142,-100.3161126,24.093607331506853
196,Montgomery,32.3792233,-86.3077368,17.824505339726027
197,Montreal,45.5016889,-73.567256,6.5223743999999995
198,Montvideo,48.4187907,-77.7764881,15.100000010958903
199,Moscow,55.755826,37.6172999,5.031354649315068
200,Munich,48.1351253,11.5819805,9.398325715068493
201,Muscat,23.5880307,58.3828717,26.81948249315069
202,Nairobi,-1.2920659,36.8219462,6.655555517808219
203,Nashville,36.1626638,-86.7816016,14.759360728767124
204,Nassau,25.0443312,-77.3503609,26.209741260273976
205,New Orleans,29.95106579999999,-90.0715323,20.819025876712328
206,New York City,40.7127753,-74.0059728,11.754946709589042
207,Newark,40.735657,-74.1723667,11.825875183561644
208,Niamey,13.5115963,2.1253854,29.576560120547946
210,Norfolk,36.8507689,-76.28587259999999,15.651141539726027
211,North Platte,41.1402759,-100.7601454,9.72222222739726
212,Nouakchott,18.0735299,-15.9582372,23.40289193972603
213,Oklahoma City,35.4675602,-97.5164276,15.385996942465754
214,Omaha,41.2565369,-95.9345034,10.441095893150687
215,Orlando,28.5383355,-81.3792365,21.9904109479452
216,Osaka,34.6937249,135.5022535,16.285844764383565
217,Oslo,59.9138688,10.7522454,5.446118709589042
218,Ottawa,45.4215296,-75.69719309999999,6.000456638356165
219,Paducah,37.0833893,-88.6000478,13.78401824931507
220,Panama City,30.1588129,-85.6602058,26.732420087671233
222,Paris,48.856614,2.3522219,12.534550997260272
223,Peoria,40.6936488,-89.5889864,10.609589046575344
224,Perth,-31.9505269,115.8604572,17.547184183561644
225,Philadelphia,39.9525839,-75.1652215,12.523744279452053
226,Phoenix,33.4483771,-112.0740373,23.923592049315065
227,Pittsburgh,40.44062479999999,-79.9958864,10.127245021917808
228,Pocatello,42.8621042,-112.4506191,9.467123287671233
230,Portland,45.5051064,-122.6750261,11.233905237914025
231,Prague,50.0755381,14.4378005,8.951445945205478
232,Pristina,42.6629138,21.1655028,11.694368334246576
233,Pueblo,38.2544472,-104.6091409,12.292846271232877
234,Pyongyang,39.0392193,125.7625241,10.422070010958905
235,Quebec,52.9399159,-73.5491361,4.3369862712328775
236,Quito,-0.1806532,-78.4678382,13.64033485479452
237,Rabat,33.9715904,-6.8498129,17.42739727123288
238,Raleigh Durham,35.8991678,-78.86364019999999,14.896194830136988
239,Rangoon,16.840939,96.173526,27.348249619178077
240,Rapid City,44.0805434,-103.2310149,8.759208517808219
241,Regina,50.4452112,-104.6188943,2.9249619643835616
242,Reno,39.5296329,-119.8138027,12.79771688219178
243,Reykjavik,64.146582,-21.9426354,6.223135460273974
244,Rhode Island,41.5800945,-71.4774291,10.022678849315067
245,Richmond,37.5407246,-77.4360481,13.745205484931507
246,Riga,56.9496487,24.1051865,7.595586010958905
247,Rio de Janeiro,-22.9068467,-43.1728965,24.045509917808218
248,Riyadh,24.7135517,46.6752957,26.19238964109589
249,Roanoke,37.2709704,-79.9414266,13.071689517808219
250,Rochester,43.15657789999999,-77.6088465,8.280974128767124
251,Rockford,42.2711311,-89.0939952,8.960273945205477
252,Rome,41.9027835,12.4963655,16.14444444657534
253,Sacramento,38.5815719,-121.4943996,15.943987824657533
254,Salem,42.51954,-70.8967155,12.005479446575343
255,Salt Lake City,40.7607793,-111.8910474,12.677473380821917
256,San Angelo,31.4637723,-100.4370375,18.19802130684932
257,San Antonio,29.4241219,-98.49362819999999,20.118417032876714
258,San Diego,32.715738,-117.1610838,17.127397243835617
259,San Francisco,37.7749295,-122.4194155,14.002435312328767
260,San Jose,37.3382082,-121.8863286,22.5248097369863
261,San Juan Puerto Rico,18.4655394,-66.1057355,19.99345507671233
262,Santo Domingo,18.4860575,-69.93121169999999,24.91080670136986
263,Sao Paulo,-23.5505199,-46.63330939999999,20.095890405479455
264,Sapporo,37.6803663,-97.2433286,6.649923895890411
265,Sault Ste Marie,46.49771150000001,-84.3475876,4.797108065753425
266,Savannah,32.0808989,-81.091203,18.709436835616437
267,Seattle,47.6062095,-122.3320708,11.294977178082194
268,Seoul,37.566535,126.9779692,11.74627094520548
269,Shanghai,31.230416,121.473701,17.234398772602738
270,Shenyang,41.805699,123.431472,9.056316602739727
271,Shreveport,32.5251516,-93.7501789,18.551902608219176
272,Singapore,1.352083,103.819836,27.54459662739726
273,Sioux City,42.4963416,-96.40494079999999,9.174429221917809
274,Sioux Falls,43.5473028,-96.728333,8.033942150684931
275,Skopje,41.9981294,21.4254355,12.354185701369863
276,Sofia,42.6977082,23.3218675,10.09558599452055
277,South Bend,41.6763545,-86.25198979999999,9.38797564109589
278,Spokane,47.6587802,-117.4260465,9.359969531506849
279,Springfield,37.2089572,-93.29229889999999,11.996254815383317
280,St Louis,38.6270025,-90.19940419999999,13.612328756164382
281,Stockholm,59.32932349999999,18.0685808,7.380821904109588
282,Sydney,-33.8688197,151.2092955,13.776560123287672
283,Syracuse,43.0481221,-76.14742439999999,8.432420093150684
284,Taipei,25.0329694,121.5654177,23.268493150684932
285,Tallahassee,30.4382559,-84.28073289999999,18.990106526027397
286,Tampa St. Petersburg,27.7676008,-82.64029149999999,22.44185693150685
287,Tashkent,41.2994958,69.2400734,15.648706246575344
288,Tbilisi,41.7151377,44.827096,13.24703196438356
289,Tegucigalpa,14.065049,-87.1715002,21.56666667671233
290,Tel Aviv,32.0852999,34.78176759999999,19.940334865753425
291,Tirana,41.3275459,19.8186982,16.59573821917808
292,Tokyo,35.6803997,139.7690174,15.730136980821918
293,Toledo,41.6528052,-83.5378674,9.507458134246576
294,Topeka,39.0473451,-95.67515759999999,12.801217665753425
295,Toronto,43.653226,-79.3831843,8.097564668493149
296,Tucson,32.2226066,-110.9747108,21.385996953424655
297,Tulsa,36.1539816,-95.99277500000001,15.70045662739726
298,Tunis,36.8064948,10.1815316,19.37838659452055
299,Tupelo,34.2576066,-88.7033859,15.69041094520548
301,Vancouver,49.2827291,-123.1207375,10.962100454794522
302,Vienna,48.2081743,16.3738189,10.830593610958907
303,Vientiane,17.9757058,102.6331035,26.803957367123285
304,Waco,31.549333,-97.1466695,19.015525126027395
305,Warsaw,52.2296756,21.0122287,8.37123288219178
306,Washington,47.7510741,-120.7401385,14.536315911007271
307,Washington DC,38.9071923,-77.0368707,14.536315911007271
308,West Palm Beach,26.7153424,-80.0533746,24.271841709589044
309,Wichita,37.68717609999999,-97.33005299999999,13.385844728767124
310,Wichita Falls,33.9137085,-98.4933873,17.43302891780822
311,Wilkes Barre,41.2459149,-75.88130749999999,8.91689495890411
312,Wilmington,34.2103894,-77.8868117,11.684322668493149
313,Windhoek,-22.5608807,17.0657549,5.63439874520548
314,Winnipeg,49.895136,-97.13837439999999,3.4913241863013704
315,Yakima,46.6020711,-120.5058987,11.251902583561645
316,Yerevan,40.1872023,44.515209,7.739583348684212
317,Youngstown,41.0997803,-80.6495194,8.823592057534247
318,Yuma,32.6926512,-114.6276916,23.48356164109589
319,Zagreb,45.8150108,15.9819189,12.477473350684932
320,Zurich,47.3768866,8.541694,9.834094394520546
