index,City,Latitude,Longitude,Temperature
0,Abidjan,5.3599517,-4.0082563,22.351244666666666
1,Abilene,32.4487364,-99.73314390000002,17.350789303278688
2,Abu Dhabi,24.453884,54.3773438,28.35382513387978
4,Akron Canton,40.9153779,-81.4418833,9.73846386612022
5,Albany,42.6525793,-73.7562317,9.001517901639344
6,Albuquerque,35.0843859,-106.650422,14.031724336065572
7,Algiers,36.753768,3.0587561,17.826350928961748
8,Allentown,40.6022939,-75.4714098,11.061323592896176
9,Almaty,43.2220146,76.8512485,10.066029144808745
10,Amarillo,35.2219971,-101.8312969,13.845628407103824
11,Amman,31.9539494,35.910635,17.92197937431694
12,Amsterdam,52.3666969,4.8945398,10.710534303278688
13,Anchorage,61.2180556,-149.9002778,3.7973588032786876
14,Ankara,39.9333635,32.8597419,10.136460234972676
15,Antananarivo,-18.8791902,47.5079055,18.529902857923496
16,Ashabad,37.9600766,58.32606289999999,17.656193087431692
17,Asheville,35.5950581,-82.5514869,13.146478434426228
18,Athens,37.9838096,23.7275388,18.1416211147541
19,Atlanta,33.7489954,-84.3879824,16.875075885245902
20,Atlantic City,39.3642834,-74.4229266,12.312234355191258
21,Auckland,-36.8484597,174.7633315,14.748178519125684
22,Austin,30.267153,-97.7430608,19.816939915300548
23,Baltimore,39.2903848,-76.6121893,13.13099574590164
24,Bangkok,13.7563309,100.5017651,29.279295677595627
25,Bangui,4.3946735,18.5581899,23.578931385245898
26,Banjul,13.4548761,-16.5790323,17.684426204918033
27,Barcelona,41.3850639,2.1734035,17.152853666666665
28,Baton Rouge,30.4514677,-91.18714659999999,19.800546442622952
29,Beijing,39.90419989999999,116.4073963,13.101700032786887
30,Beirut,33.8937913,35.5017767,20.965543393442623
31,Belfast,54.59728500000001,-5.93012,9.657559210382514
32,Belgrade,44.786568,20.4489216,11.912416505464483
33,Belize City,17.5045661,-88.1962133,24.686703095628417
34,Bern,46.9479739,7.4474468,9.07468125956284
35,Bilbao,43.2630126,-2.9349852,15.645567710382513
36,Billings,45.7832856,-108.5006904,9.266089841530054
37,Birmingham,33.5185892,-86.8103567,17.33788705737705
38,Bishkek,42.8746212,74.5697617,12.342289030054646
39,Bismarck,46.8083268,-100.7837392,6.4576502732240435
41,Bogota,4.710988599999999,-74.072092,13.110048573770491
42,Boise,43.6150186,-116.2023137,11.697176683060109
43,Bombay (Mumbai),19.0759837,72.8776559,27.00151793442623
44,Bordeaux,44.837789,-0.57918,13.488008500000001
45,Boston,42.3600825,-71.0588801,10.291742571038252
46,Brasilia,-15.826691,-47.92182039999999,22.527322412568303
47,Bratislava,48.1485965,17.1077478,10.541438961748634
48,Brazzaville,-4.2633597,15.2428853,25.201730396174863
49,Bridgeport,41.1792258,-73.1894384,11.132361860655736
50,Bridgetown,45.5051064,-122.6750261,25.219338221311475
51,Brisbane,-27.4697707,153.0251235,20.342289021857923
52,Brownsville,25.9017472,-97.4974838,23.36080752459017
53,Brussels,50.8503396,4.3517103,10.905434092896174
54,Bucharest,44.4267674,26.1025384,11.065573800546447
55,Budapest,47.497912,19.040235,9.275956295081969
56,Buenos Aires,-34.6036844,-58.3815591,17.014420136612024
57,Buffalo,42.88644679999999,-78.8783689,8.819064972677596
59,Burlington,36.0624198,-95.88890219999999,7.254705516393443
60,Cairo,30.0444196,31.2357116,22.372343644808744
61,Calcutta,22.572646,88.36389500000001,26.882513655737704
62,Calgary,51.04473309999999,-114.0718831,4.923041909836065
63,Canberra,-35.2809368,149.1300092,13.800850043715847
64,Capetown,-33.9248685,18.4240553,17.04007286885246
65,Caracas,10.4805937,-66.90360629999999,27.48937464480875
66,Caribou,36.1910923,-95.88973539999999,3.825895576502732
67,Casper,39.04117859999999,-94.5911521,7.933667275956283
68,Charleston,32.7764749,-79.93105120000001,15.858906689429679
69,Charlotte,35.2270869,-80.8431267,15.790983609289619
70,Chattanooga,35.0456297,-85.3096801,15.937765636612024
71,Chengdu,30.572815,104.066801,17.19064968032787
72,Chennai (Madras),13.0826802,80.2707184,28.08151185519126
73,Cheyenne,41.1399814,-104.8202462,8.480722513661203
74,Chicago,41.8781136,-87.6297982,10.24377656284153
75,Cincinnati,39.1031182,-84.5120196,12.267000617486339
76,Cleveland,41.49932,-81.6943605,10.349726773224043
77,Colombo,6.9270786,79.861243,27.242410409836065
78,Colorado Springs,38.8338816,-104.8213634,9.405737729508198
79,Columbia,34.0007104,-81.0348144,17.72207042076503
80,Columbus,39.9611755,-82.99879419999999,11.992745728170192
81,Conakry,9.641185499999999,-13.5784012,27.737704904371586
82,Concord,37.9779776,-122.0310733,8.17455980874317
83,Copenhagen,55.6760968,12.5683372,8.370522172131146
84,Corpus Christi,27.8005828,-97.39638099999999,22.289010319672133
85,Cotonou,6.3702928,2.3912362,27.37978143169399
86,Dakar,14.716677,-17.4676861,24.54128720765027
87,Dallas Ft Worth,32.7766642,-96.79698789999999,19.054037639344266
88,Damascus,33.5138073,36.2765279,17.425318759562845
89,Dar Es Salaam,-6.792354,39.2083284,17.174104401639344
90,Dayton,39.7589478,-84.1916069,11.051305418032786
91,Daytona Beach,29.2108147,-81.0228331,21.464329090163933
92,Delhi,28.7040592,77.10249019999999,25.154826975409836
93,Denver,39.7392358,-104.990251,10.048269581967213
94,Des Moines,41.5868353,-93.6249593,10.44398906284153
95,Detroit,42.331427,-83.0457538,10.04250149453552
96,Dhahran,26.2361248,50.0393017,26.81633274043716
98,Doha,25.2854473,51.53103979999999,28.174863379781417
99,Dubai,25.2048493,55.2707828,28.48497267759563
100,Dublin,53.3498053,-6.2603097,9.934426243169398
101,Duluth,46.78667189999999,-92.1004852,4.068457795081967
102,Dusanbe,38.5597722,68.7870384,16.200516057377047
103,Edmonton,53.5461245,-113.4938229,4.2911353852459015
104,El Paso,31.7618778,-106.4850217,18.110807513661204
105,Elkins,36.0014682,-94.0082547,10.55980569125683
106,Erie,42.12922409999999,-80.085059,9.702185775956284
107,Eugene,44.0520691,-123.0867536,11.883424360655738
108,Evansville,37.9715592,-87.5710898,13.765330904371584
110,Fargo,46.8771863,-96.7898034,5.585154814207651
111,Flagstaff,35.1982836,-111.651302,9.444444452961672
112,Flint,43.0125274,-83.6874562,8.97207044262295
113,Fort Smith,35.3859242,-94.39854749999999,16.51639343442623
114,Fort Wayne,41.079273,-85.1393513,10.14025499453552
116,Freetown,8.4656765,-13.2317225,21.933970866120216
117,Fresno,36.7377981,-119.7871247,18.168184595628414
118,Geneva,46.2043907,6.1431577,10.975865183060112
120,Goodland,29.673831,-95.5452176,10.996660592896175
121,Grand Junction,39.0638705,-108.5506486,11.44140861748634
122,Grand Rapids,42.9633599,-85.6680863,9.222525822404371
123,Great Falls,38.9987208,-77.2538699,7.460230734972677
124,Green Bay,44.5133188,-88.0132958,7.492106860655738
125,Greensboro,36.0726354,-79.7919754,15.120977546448088
127,Guangzhou,23.12911,113.264385,22.796296303278687
128,Guatemala City,14.6349149,-90.5068824,17.79568912295082
129,Guayaquil,-2.1894128,-79.8890662,18.233910109289617
130,Halifax,44.6475811,-63.5727683,6.086065581967214
132,Hamilton,37.9426096,-96.19513200000002,21.853673319672133
133,Hanoi,21.0277644,105.8341598,23.134790527322405
134,Harrisburg,40.2731911,-76.8867008,11.840012147540982
135,Hartford Springfield,41.9413995,-72.6996932,9.962659387978142
136,Havana,23.1135925,-82.3665956,22.972829382513662
137,Helena,46.5891452,-112.0391057,7.778688540983606
138,Helsinki,60.16985569999999,24.9383791,5.394808729508196
139,Hong Kong,22.3193039,114.1693611,24.073011524590164
140,Honolulu,21.3069444,-157.8583333,25.68791742896175
141,Houston,29.7604267,-95.3698028,21.04857318852459
142,Huntsville,34.7303688,-86.5861037,16.1416211147541
143,Indianapolis,39.768403,-86.158068,11.901639352459016
144,Islamabad,33.6844202,73.04788479999999,22.036581653005463
145,Istanbul,41.0082376,28.9783589,14.895719486338798
146,Jackson,32.2987573,-90.1848103,18.017000612021857
147,Jacksonville,30.3321838,-81.65565099999999,19.892531882513662
149,Juneau,58.3019444,-134.4197221,6.615057674863388
151,Kansas City,39.0997265,-94.5785667,12.729811803278688
152,Karachi,24.8607343,67.0011364,27.155282327868854
153,Katmandu,27.7172453,85.3239605,17.69884636612022
154,Kiev,50.4501,30.5234,8.674256213114754
155,Knoxville,35.9606384,-83.9207392,15.06693988797814
156,Kuala Lumpur,3.139003,101.686855,27.829234967213115
157,Kuwait,29.31166,47.481766,26.88433515573771
158,La Paz,-16.489689,-68.11929359999999,7.711596833333332
160,Lake Charles,30.2265949,-93.2173758,20.410898584699453
161,Lansing,42.732535,-84.5555347,8.82210080601093
162,Las Vegas,36.1699412,-115.1398296,21.02853673497268
163,Lexington,38.0405837,-84.5037164,12.968731030054643
164,Libreville,0.4161976,9.4672676,17.61718275136612
166,Lima,-12.0463731,-77.042754,19.21038250819672
167,Lincoln,40.813616,-96.7025955,11.225713423497268
168,Lisbon,38.7222524,-9.1393366,16.78551911202186
169,Little Rock,34.7464809,-92.28959479999999,16.951123259562838
170,Lome,6.1256261,1.2254183,26.681086844262296
171,London,51.5073509,-0.1277583,11.72055255464481
172,Los Angeles,34.0522342,-118.2436849,17.025652672131148
173,Louisville,38.2526647,-85.7584557,14.692774754098362
174,Lubbock,33.5778631,-101.8551665,15.586824543715846
175,Lusaka,-15.3875259,28.3228165,18.33986032240437
176,Macon,32.8406946,-83.6324022,18.46296293989071
177,Madison,43.0730517,-89.4012302,8.689890734972678
178,Madrid,40.4167754,-3.7037902,14.207043076502732
179,Managua,12.1149926,-86.2361744,25.87204007650273
180,Manama,26.2235305,50.5875935,27.099119633879784
181,Manila,14.5995124,120.9842195,27.809805740437156
182,Maputo,-25.969248,32.5731746,18.455373385245903
183,Medford,42.3265152,-122.8755949,13.333181543715849
184,Melbourne,-37.8136276,144.9630576,18.45021252185792
185,Memphis,35.1495343,-90.0489801,17.378718901639346
186,Mexico City,19.4326077,-99.133208,16.56026107377049
187,Miami Beach,25.790654,-80.1300455,24.567547073770495
188,Midland Odessa,31.9391746,-102.2522487,17.296751672131148
189,Milan,45.4642035,9.189982,12.051305398907104
190,Milwaukee,43.0389025,-87.9064736,8.839101393442622
191,Minneapolis St. Paul,44.9374831,-93.20099979999999,8.136915587431695
192,Minsk,53.9006011,27.558972,7.066636322404371
193,Mobile,36.723521,-95.93437,19.701123237704916
194,Monterrey,25.6866142,-100.3161126,24.39708560928962
195,Montgomery,32.3792233,-86.3077368,19.178202800546448
196,Montreal,45.5016889,-73.567256,6.605494863387978
197,Montvideo,48.4187907,-77.7764881,16.606102021857925
198,Moscow,55.755826,37.6172999,5.271857901639344
199,Munich,48.1351253,11.5819805,8.854128702185793
200,Muscat,23.5880307,58.3828717,24.560716442622947
201,Nairobi,-1.2920659,36.8219462,13.685185196721312
202,Nashville,36.1626638,-86.7816016,15.607012770491803
203,Nassau,25.0443312,-77.3503609,20.05221612295082
204,New Orleans,29.95106579999999,-90.0715323,20.75030357650273
205,New York City,40.7127753,-74.0059728,12.664693352459018
206,Newark,40.735657,-74.1723667,12.535063762295081
207,Niamey,13.5115963,2.1253854,29.88312080601093
209,Norfolk,36.8507689,-76.28587259999999,15.994839106557379
210,North Platte,41.1402759,-100.7601454,9.685792355191257
211,Nouakchott,18.0735299,-15.9582372,24.270340016393437
212,Oklahoma City,35.4675602,-97.5164276,15.982240450819674
213,Omaha,41.2565369,-95.9345034,10.823466909836066
214,Orlando,28.5383355,-81.3792365,22.070886480874318
215,Osaka,34.6937249,135.5022535,17.281420770491803
216,Oslo,59.9138688,10.7522454,5.622191849726775
217,Ottawa,45.4215296,-75.69719309999999,5.938221
218,Paducah,37.0833893,-88.6000478,14.463418349726776
219,Panama City,30.1588129,-85.6602058,25.753642978142075
221,Paris,48.856614,2.3522219,11.99180329781421
222,Peoria,40.6936488,-89.5889864,11.188220967213116
223,Perth,-31.9505269,115.8604572,18.15270187978142
224,Philadelphia,39.9525839,-75.1652215,13.059350344262295
225,Phoenix,33.4483771,-112.0740373,24.046751658469947
226,Pittsburgh,40.44062479999999,-79.9958864,10.941408628415301
227,Pocatello,42.8621042,-112.4506191,8.305707363387977
229,Portland,45.5051064,-122.6750261,11.2384490660438
230,Prague,50.0755381,14.4378005,8.538858527322404
231,Pristina,42.6629138,21.1655028,5.952777814285714
232,Pueblo,38.2544472,-104.6091409,11.450060710382512
233,Pyongyang,39.0392193,125.7625241,9.171827546448087
234,Quebec,52.9399159,-73.5491361,4.213114745901639
235,Quito,-0.1806532,-78.4678382,7.689738904371587
236,Rabat,33.9715904,-6.8498129,17.44262293989071
237,Raleigh Durham,35.8991678,-78.86364019999999,15.692774751366121
238,Rangoon,16.840939,96.173526,27.349119628415302
239,Rapid City,44.0805434,-103.2310149,9.150576792349728
240,Regina,50.4452112,-104.6188943,2.4248633770491805
241,Reno,39.5296329,-119.8138027,12.709775371584701
242,Reykjavik,64.146582,-21.9426354,5.7170612868852455
243,Rhode Island,41.5800945,-71.4774291,10.39344263114754
244,Richmond,37.5407246,-77.4360481,14.985883385245902
245,Riga,56.9496487,24.1051865,7.318306024590163
246,Rio de Janeiro,-22.9068467,-43.1728965,23.89996963934426
247,Riyadh,24.7135517,46.6752957,26.006223453551918
248,Roanoke,37.2709704,-79.9414266,14.265634513661203
249,Rochester,43.15657789999999,-77.6088465,8.598057084699454
250,Rockford,42.2711311,-89.0939952,9.512598672131148
251,Rome,41.9027835,12.4963655,15.523831196721309
252,Sacramento,38.5815719,-121.4943996,16.043564046448086
253,Salem,42.51954,-70.8967155,12.082118983606557
254,Salt Lake City,40.7607793,-111.8910474,11.319368543715846
255,San Angelo,31.4637723,-100.4370375,18.098664234972677
256,San Antonio,29.4241219,-98.49362819999999,20.61794171857923
257,San Diego,32.715738,-117.1610838,17.845476612021855
258,San Francisco,37.7749295,-122.4194155,14.551760775956284
259,San Jose,37.3382082,-121.8863286,22.433515469945355
260,San Juan Puerto Rico,18.4655394,-66.1057355,18.2676077568306
261,Santo Domingo,18.4860575,-69.93121169999999,22.08227076775956
262,Sao Paulo,-23.5505199,-46.63330939999999,19.398603527322404
263,Sapporo,37.6803663,-97.2433286,7.627656363387978
264,Sault Ste Marie,46.49771150000001,-84.3475876,4.505768024590164
265,Savannah,32.0808989,-81.091203,18.67562236885246
266,Seattle,47.6062095,-122.3320708,11.690346035519125
267,Seoul,37.566535,126.9779692,12.689131775956286
268,Shanghai,31.230416,121.473701,17.657255595628417
269,Shenyang,41.805699,123.431472,9.620218598360655
270,Shreveport,32.5251516,-93.7501789,18.927292043715845
271,Singapore,1.352083,103.819836,27.911050379781422
272,Sioux City,42.4963416,-96.40494079999999,9.71584699726776
273,Sioux Falls,43.5473028,-96.728333,8.466605959016393
274,Skopje,41.9981294,21.4254355,12.26654524590164
275,Sofia,42.6977082,23.3218675,10.299787524590164
276,South Bend,41.6763545,-86.25198979999999,10.005312699453553
277,Spokane,47.6587802,-117.4260465,9.580601079234974
278,Springfield,37.2089572,-93.29229889999999,11.999353936673309
279,St Louis,38.6270025,-90.19940419999999,14.228293860655741
280,Stockholm,59.32932349999999,18.0685808,7.248482092896176
281,Sydney,-33.8688197,151.2092955,14.027474169398905
282,Syracuse,43.0481221,-76.14742439999999,8.790831792349726
283,Taipei,25.0329694,121.5654177,23.039010325136612
284,Tallahassee,30.4382559,-84.28073289999999,19.49332119125683
285,Tampa St. Petersburg,27.7676008,-82.64029149999999,22.429568907103825
286,Tashkent,41.2994958,69.2400734,16.62750456010929
287,Tbilisi,41.7151377,44.827096,13.706284153005464
288,Tegucigalpa,14.065049,-87.1715002,17.77777776502732
289,Tel Aviv,32.0852999,34.78176759999999,13.823466901639344
290,Tirana,41.3275459,19.8186982,16.158469948087433
291,Tokyo,35.6803997,139.7690174,17.036581647540988
292,Toledo,41.6528052,-83.5378674,10.087128106557378
293,Topeka,39.0473451,-95.67515759999999,12.16074681967213
294,Toronto,43.653226,-79.3831843,8.395719483606559
295,Tucson,32.2226066,-110.9747108,20.87431693442623
296,Tulsa,36.1539816,-95.99277500000001,16.156344844262293
297,Tunis,36.8064948,10.1815316,19.148451734972678
298,Tupelo,34.2576066,-88.7033859,16.626290207650275
300,Vancouver,49.2827291,-123.1207375,11.460078937158471
301,Vienna,48.2081743,16.3738189,10.335003016393442
302,Vientiane,17.9757058,102.6331035,26.782331508196723
303,Waco,31.549333,-97.1466695,19.28506374043716
304,Warsaw,52.2296756,21.0122287,8.465695196721311
305,Washington,47.7510741,-120.7401385,14.585014825147958
306,Washington DC,38.9071923,-77.0368707,14.585014825147958
307,West Palm Beach,26.7153424,-80.0533746,23.990285371584697
308,Wichita,37.68717609999999,-97.33005299999999,14.046448076502733
309,Wichita Falls,33.9137085,-98.4933873,17.38099574590164
310,Wilkes Barre,41.2459149,-75.88130749999999,9.571190013661203
311,Wilmington,34.2103894,-77.8868117,12.437613830601094
312,Windhoek,-22.5608807,17.0657549,9.088949551912568
313,Winnipeg,49.895136,-97.13837439999999,2.3263509398907107
314,Yakima,46.6020711,-120.5058987,10.938221016393442
315,Youngstown,41.0997803,-80.6495194,9.402246491803277
316,Yuma,32.6926512,-114.6276916,5.321797177595628
317,Zagreb,45.8150108,15.9819189,11.692926524590163
318,Zurich,47.3768866,8.541694,9.453248333333335
